Route,Location,URL,"Avg Stars","Your Stars","Route Type",Rating,Pitches,Length,"Area Latitude","Area Longitude"
"Illicit Sweetie","Illicit Sweetie Boulder > The Hang > Planet X Bouldering > *Joshua Tree Bouldering* > Joshua Tree National Park > California",https://www.mountainproject.com/route/105798054/illicit-sweetie,3.1,-1,Boulder,V0,1,18,33.99802,-116.15351
"The Sideling","Halfling Boulder > The Hang > Planet X Bouldering > *Joshua Tree Bouldering* > Joshua Tree National Park > California",https://www.mountainproject.com/route/111505610/the-sideling,3.1,-1,Boulder,V3,1,13,33.99792,-116.15341
"Nicole Overhang","Nicole Boulder > The Hang > Planet X Bouldering > *Joshua Tree Bouldering* > Joshua Tree National Park > California",https://www.mountainproject.com/route/107905741/nicole-overhang,3.1,-1,Boulder,V6,1,13,33.99779,-116.1536
"Strawberry Contraceptives","Strawberry Contraceptives Boulder > The Hang > Planet X Bouldering > *Joshua Tree Bouldering* > Joshua Tree National Park > California",https://www.mountainproject.com/route/108433838/strawberry-contraceptives,3.1,-1,Boulder,V7,1,10,33.99762,-116.15424
"Saxwing on the DL","The Hang West > The Hang > Planet X Bouldering > *Joshua Tree Bouldering* > Joshua Tree National Park > California",https://www.mountainproject.com/route/108734026/saxwing-on-the-dl,3.0,-1,Boulder,V5,1,15,33.99789,-116.1543
"Planet X","Planet X Boulder > Planet X Area > Planet X Bouldering > *Joshua Tree Bouldering* > Joshua Tree National Park > California",https://www.mountainproject.com/route/105722578/planet-x,3.9,-1,Boulder,"V6 R",1,23,33.99712,-116.15523
"Jerry's Kids","Jerry's Boulder > Planet X Area > Planet X Bouldering > *Joshua Tree Bouldering* > Joshua Tree National Park > California",https://www.mountainproject.com/route/106123996/jerrys-kids,3.0,-1,Boulder,V4,1,,33.99713,-116.15575
"Satellite Boulder Left","Satellite Boulder > Planet X Area > Planet X Bouldering > *Joshua Tree Bouldering* > Joshua Tree National Park > California",https://www.mountainproject.com/route/107601458/satellite-boulder-left,3.5,-1,Boulder,"V3 PG13",1,18,33.9966,-116.15558
X-Men,"X-Men Boulder > Planet X Bouldering > *Joshua Tree Bouldering* > Joshua Tree National Park > California",https://www.mountainproject.com/route/108549284/x-men,3.3,-1,Boulder,V4,1,20,33.99662,-116.15492
"Up 20","Sandy Wash Corridor > Cap Rock Bouldering > *Joshua Tree Bouldering* > Joshua Tree National Park > California",https://www.mountainproject.com/route/106096439/up-20,3.0,-1,Boulder,"V2 R",1,20,33.98848,-116.16102
"All Washed Up","Sandy Wash Corridor > Cap Rock Bouldering > *Joshua Tree Bouldering* > Joshua Tree National Park > California",https://www.mountainproject.com/route/105723292/all-washed-up,3.8,-1,Boulder,V6,1,20,33.98848,-116.16102
"Ample Mantle","Parking Lot Boulder > Cap Rock Bouldering > *Joshua Tree Bouldering* > Joshua Tree National Park > California",https://www.mountainproject.com/route/108630058/ample-mantle,3.0,-1,Boulder,V1,1,15,33.98964,-116.16395
"Pumping Monzonite","Pumping Monzonite Boulder > Cap Rock Bouldering > *Joshua Tree Bouldering* > Joshua Tree National Park > California",https://www.mountainproject.com/route/105901886/pumping-monzonite,3.8,-1,Boulder,V7-8,1,15,33.9877,-116.1613
"High Heeled Sneakers","Cap Rock > Cap Rock Bouldering > *Joshua Tree Bouldering* > Joshua Tree National Park > California",https://www.mountainproject.com/route/106161768/high-heeled-sneakers,3.0,-1,Boulder,V5,1,18,33.98965,-116.16317
"Saturday Night Live","Saturday Night Live Boulder > Real Hidden Valley Circuit > Real Hidden Valley Bouldering > *Joshua Tree Bouldering* > Joshua Tree National Park > California",https://www.mountainproject.com/route/105723517/saturday-night-live,3.5,-1,Boulder,V4,1,13,34.01167,-116.16855
"Betty Jo Yablonksi","Betty Jo Rock > Entrance Boulder & Vicinity > Real Hidden Valley Circuit > Real Hidden Valley Bouldering > *Joshua Tree Bouldering* > Joshua Tree National Park > California",https://www.mountainproject.com/route/105725209/betty-jo-yablonksi,3.6,-1,Boulder,"5.10a V0 R",1,25,34.01247,-116.16861
"Ceasar's Palace","Entrance Boulder > Entrance Boulder & Vicinity > Real Hidden Valley Circuit > Real Hidden Valley Bouldering > *Joshua Tree Bouldering* > Joshua Tree National Park > California",https://www.mountainproject.com/route/106151375/ceasars-palace,3.5,-1,Boulder,V6,1,19,34.01256,-116.16836
"Evan's Problem","Sports Challenge Rock > Real Hidden Valley Circuit > Real Hidden Valley Bouldering > *Joshua Tree Bouldering* > Joshua Tree National Park > California",https://www.mountainproject.com/route/116494567/evans-problem,4.0,-1,Boulder,V4,1,5,34.01431,-116.17112
Kirkatron,"Sports Challenge Rock > Real Hidden Valley Circuit > Real Hidden Valley Bouldering > *Joshua Tree Bouldering* > Joshua Tree National Park > California",https://www.mountainproject.com/route/106049301/kirkatron,3.3,-1,Boulder,V5,1,30,34.01431,-116.17112
"Turtle Face Center","Wedge Boulder > Turtle Rock Circuit > Real Hidden Valley Bouldering > *Joshua Tree Bouldering* > Joshua Tree National Park > California",https://www.mountainproject.com/route/106146685/turtle-face-center,2.8,-1,Boulder,V2,1,20,34.00972,-116.16725
Shipwreck,"Shipwreck Boulder > Turtle Rock Circuit > Real Hidden Valley Bouldering > *Joshua Tree Bouldering* > Joshua Tree National Park > California",https://www.mountainproject.com/route/106069186/shipwreck,3.2,-1,Boulder,"V3 R",1,20,34.00983,-116.16681
"Fist Full of Walnuts","Shipwreck Boulder > Turtle Rock Circuit > Real Hidden Valley Bouldering > *Joshua Tree Bouldering* > Joshua Tree National Park > California",https://www.mountainproject.com/route/106076661/fist-full-of-walnuts,3.1,-1,Boulder,V3,1,15,34.00983,-116.16681
"The Button High","So High Boulder > Turtle Rock Circuit > Real Hidden Valley Bouldering > *Joshua Tree Bouldering* > Joshua Tree National Park > California",https://www.mountainproject.com/route/108304007/the-button-high,3.0,-1,Boulder,V3,1,25,34.00984,-116.16704
"So High","So High Boulder > Turtle Rock Circuit > Real Hidden Valley Bouldering > *Joshua Tree Bouldering* > Joshua Tree National Park > California",https://www.mountainproject.com/route/106048550/so-high,3.4,-1,Boulder,"V5 R",1,40,34.00984,-116.16704
"Powerband West","So High Boulder > Turtle Rock Circuit > Real Hidden Valley Bouldering > *Joshua Tree Bouldering* > Joshua Tree National Park > California",https://www.mountainproject.com/route/106148615/powerband-west,3.0,-1,Boulder,V8,1,,34.00984,-116.16704
"So High (sit)","So High Boulder > Turtle Rock Circuit > Real Hidden Valley Bouldering > *Joshua Tree Bouldering* > Joshua Tree National Park > California",https://www.mountainproject.com/route/106048570/so-high-sit,3.5,-1,Boulder,"V11 R",1,,34.00984,-116.16704
"Black Velvet","Black Velvet Boulder > Turtle Rock Circuit > Real Hidden Valley Bouldering > *Joshua Tree Bouldering* > Joshua Tree National Park > California",https://www.mountainproject.com/route/106073939/black-velvet,3.0,-1,Boulder,V2-3,1,20,34.00946,-116.1687
"Jump Chump","Jump Chump Clump > Turtle Rock Circuit > Real Hidden Valley Bouldering > *Joshua Tree Bouldering* > Joshua Tree National Park > California",https://www.mountainproject.com/route/106073955/jump-chump,3.0,-1,Boulder,V2,1,15,34.00967,-116.16845
"Act of Contrition","Broken Egg > Turtle Rock Circuit > Real Hidden Valley Bouldering > *Joshua Tree Bouldering* > Joshua Tree National Park > California",https://www.mountainproject.com/route/106143002/act-of-contrition,3.6,-1,Boulder,"V3 R",1,20,34.01116,-116.16725
"Dish Mantel","Zinger Boulder > Semi-Precious Bouldering > Real Hidden Valley Bouldering > *Joshua Tree Bouldering* > Joshua Tree National Park > California",https://www.mountainproject.com/route/118088039/dish-mantel,3.0,-1,Boulder,V2,1,10,34.01237,-116.16243
Pigpen,"Pigpen Boulder > Manx Boulders Circuit > Manx/Asteroid Belt Circuit > Hidden Valley Campground Bouldering > *Joshua Tree Bouldering* > Joshua Tree National Park > California",https://www.mountainproject.com/route/105722992/pigpen,3.9,-1,Boulder,V4,1,10,34.0153,-116.15811
"The Yogi Variation","Pigpen Boulder > Manx Boulders Circuit > Manx/Asteroid Belt Circuit > Hidden Valley Campground Bouldering > *Joshua Tree Bouldering* > Joshua Tree National Park > California",https://www.mountainproject.com/route/113620731/the-yogi-variation,3.1,-1,Boulder,V8,1,10,34.0153,-116.15811
"Off Camber","Manx Boulders - Northwest Face > Manx Boulders > Manx Boulders Circuit > Manx/Asteroid Belt Circuit > Hidden Valley Campground Bouldering > *Joshua Tree Bouldering* > Joshua Tree National Park > California",https://www.mountainproject.com/route/105725494/off-camber,3.0,-1,Boulder,V4,1,15,34.01431,-116.15814
Unnamed,"The Pig Sty > Manx Boulders Circuit > Manx/Asteroid Belt Circuit > Hidden Valley Campground Bouldering > *Joshua Tree Bouldering* > Joshua Tree National Park > California",https://www.mountainproject.com/route/118571241/unnamed,3.0,-1,Boulder,V2,1,13,34.01398,-116.15439
Unnamed,"Little Big Horn Boulder > Little Bighorn Area > Asteroid Belt Circuit > Manx/Asteroid Belt Circuit > Hidden Valley Campground Bouldering > *Joshua Tree Bouldering* > Joshua Tree National Park > California",https://www.mountainproject.com/route/118571258/unnamed,3.0,-1,Boulder,V3,1,12,34.01369,-116.15482
Peabrain,"The Asteroid Boulder > Asteroid Boulder Area > Asteroid Belt Circuit > Manx/Asteroid Belt Circuit > Hidden Valley Campground Bouldering > *Joshua Tree Bouldering* > Joshua Tree National Park > California",https://www.mountainproject.com/route/106275707/peabrain,3.0,-1,Boulder,V4,1,15,34.01197,-116.15127
"Mighty Dog","The Asteroid Boulder > Asteroid Boulder Area > Asteroid Belt Circuit > Manx/Asteroid Belt Circuit > Hidden Valley Campground Bouldering > *Joshua Tree Bouldering* > Joshua Tree National Park > California",https://www.mountainproject.com/route/118194524/mighty-dog,3.0,-1,Boulder,V7,1,10,34.01197,-116.15127
"Pick your poison","Interceptor Boulder > Asteroid Boulder Area > Asteroid Belt Circuit > Manx/Asteroid Belt Circuit > Hidden Valley Campground Bouldering > *Joshua Tree Bouldering* > Joshua Tree National Park > California",https://www.mountainproject.com/route/118111174/pick-your-poison,3.0,-1,Boulder,V2,1,15,34.01191,-116.15107
"Orange Julius","Orange Julius Boulder > HVCG East > HVCG Bouldering Circuit > Hidden Valley Campground Bouldering > *Joshua Tree Bouldering* > Joshua Tree National Park > California",https://www.mountainproject.com/route/106527801/orange-julius,3.1,-1,Boulder,V7,1,18,34.01864,-116.16128
"Brief Squeeze","Caveman Boulder > HVCG West > HVCG Bouldering Circuit > Hidden Valley Campground Bouldering > *Joshua Tree Bouldering* > Joshua Tree National Park > California",https://www.mountainproject.com/route/116171449/brief-squeeze,3.0,-1,Boulder,V1-,1,8,34.01622,-116.1633
Caveman,"Caveman Boulder > HVCG West > HVCG Bouldering Circuit > Hidden Valley Campground Bouldering > *Joshua Tree Bouldering* > Joshua Tree National Park > California",https://www.mountainproject.com/route/105723397/caveman,3.5,-1,Boulder,V6-7,1,30,34.01622,-116.1633
"Stem Gem","Stem Gem Boulder > HVCG West > HVCG Bouldering Circuit > Hidden Valley Campground Bouldering > *Joshua Tree Bouldering* > Joshua Tree National Park > California",https://www.mountainproject.com/route/105722608/stem-gem,3.7,-1,Boulder,V4,1,20,34.01716,-116.16368
"Stem Gem Mantle","Stem Gem Boulder > HVCG West > HVCG Bouldering Circuit > Hidden Valley Campground Bouldering > *Joshua Tree Bouldering* > Joshua Tree National Park > California",https://www.mountainproject.com/route/115370817/stem-gem-mantle,4.0,-1,Boulder,V5,1,15,34.01716,-116.16368
"Mumbles Mumblephone","School Boulder > HVCG West > HVCG Bouldering Circuit > Hidden Valley Campground Bouldering > *Joshua Tree Bouldering* > Joshua Tree National Park > California",https://www.mountainproject.com/route/106681309/mumbles-mumblephone,3.0,-1,Boulder,V4,1,9,34.01693,-116.16366
"Black Pea","Black Pea Boulder > Triangle Two Boulders > HVCG West > HVCG Bouldering Circuit > Hidden Valley Campground Bouldering > *Joshua Tree Bouldering* > Joshua Tree National Park > California",https://www.mountainproject.com/route/114124773/black-pea,3.0,-1,Boulder,V2,1,15,34.01773,-116.16418
Pinhead,"Pinhead Boulder > HVCG North > HVCG Bouldering Circuit > Hidden Valley Campground Bouldering > *Joshua Tree Bouldering* > Joshua Tree National Park > California",https://www.mountainproject.com/route/105722209/pinhead,2.8,-1,Boulder,"5.8+ V0",1,15,34.01999,-116.16161
"The Funktion","The Cube (aka Funktion Boulder) > Scatterbrain Area > HVCG North > HVCG Bouldering Circuit > Hidden Valley Campground Bouldering > *Joshua Tree Bouldering* > Joshua Tree National Park > California",https://www.mountainproject.com/route/107579672/the-funktion,3.7,-1,Boulder,"V3 R",1,25,34.01866,-116.1637
Scatterbrain,"Scatterbrain Boulder > Scatterbrain Area > HVCG North > HVCG Bouldering Circuit > Hidden Valley Campground Bouldering > *Joshua Tree Bouldering* > Joshua Tree National Park > California",https://www.mountainproject.com/route/106934624/scatterbrain,3.5,-1,Boulder,V6,1,18,34.01854,-116.16366
"Mystical Vibrations","Mystical Vibrations > HVCG North > HVCG Bouldering Circuit > Hidden Valley Campground Bouldering > *Joshua Tree Bouldering* > Joshua Tree National Park > California",https://www.mountainproject.com/route/106662822/mystical-vibrations,3.2,-1,Boulder,V5,1,15,34.01955,-116.16367
"The Palmist","Grit Rock > HVCG North > HVCG Bouldering Circuit > Hidden Valley Campground Bouldering > *Joshua Tree Bouldering* > Joshua Tree National Park > California",https://www.mountainproject.com/route/116100744/the-palmist,3.0,-1,Boulder,V3,1,10,34.01918,-116.16292
"Slugs of War","Pro Tip boulder > HVCG North > HVCG Bouldering Circuit > Hidden Valley Campground Bouldering > *Joshua Tree Bouldering* > Joshua Tree National Park > California",https://www.mountainproject.com/route/112383972/slugs-of-war,3.0,-1,Boulder,V2+,1,10,34.01782,-116.16278
"Left Nixon Crack","Nixon Cracks > HVCG North > HVCG Bouldering Circuit > Hidden Valley Campground Bouldering > *Joshua Tree Bouldering* > Joshua Tree National Park > California",https://www.mountainproject.com/route/114241079/left-nixon-crack,3.4,-1,Boulder,"V0 PG13",1,18,34.01914,-116.16419
"Right Nixon Crack","Nixon Cracks > HVCG North > HVCG Bouldering Circuit > Hidden Valley Campground Bouldering > *Joshua Tree Bouldering* > Joshua Tree National Park > California",https://www.mountainproject.com/route/114241085/right-nixon-crack,3.0,-1,Boulder,"V0+ PG13",1,15,34.01914,-116.16419
Bittersweet,"Campsite Grotto > HVCG South > HVCG Bouldering Circuit > Hidden Valley Campground Bouldering > *Joshua Tree Bouldering* > Joshua Tree National Park > California",https://www.mountainproject.com/route/109937883/bittersweet,3.5,-1,Boulder,V9,1,15,34.01711,-116.16062
"Thin Lizzie","Lizzie Boulder > Outback Bouldering > *Joshua Tree Bouldering* > Joshua Tree National Park > California",https://www.mountainproject.com/route/105725710/thin-lizzie,3.4,-1,Boulder,V8,1,10,34.0202,-116.165
"Chuckawalla 'Yabo' Start","Chuckawalla Boulder > Outback Bouldering > *Joshua Tree Bouldering* > Joshua Tree National Park > California",https://www.mountainproject.com/route/116522112/chuckawalla-yabo-start,3.0,-1,Boulder,V6+,1,10,34.02056,-116.16505
Relic,"Tidal Wave Boulder > Outback Bouldering > *Joshua Tree Bouldering* > Joshua Tree National Park > California",https://www.mountainproject.com/route/106743866/relic,3.0,-1,Boulder,V9,1,20,34.02066,-116.16503
"Tidal Wave","Tidal Wave Boulder > Outback Bouldering > *Joshua Tree Bouldering* > Joshua Tree National Park > California",https://www.mountainproject.com/route/107959585/tidal-wave,3.5,-1,Boulder,V10,1,12,34.02066,-116.16503
"White Rastafarian","White Rastafarian Boulder > Outback Bouldering > *Joshua Tree Bouldering* > Joshua Tree National Park > California",https://www.mountainproject.com/route/105722593/white-rastafarian,3.9,-1,Boulder,"V2 R",1,20,34.02073,-116.16212
"Roof Romp","Romp Roof > Outback Bouldering > *Joshua Tree Bouldering* > Joshua Tree National Park > California",https://www.mountainproject.com/route/105837898/roof-romp,3.0,-1,Boulder,V4,1,15,34.02174,-116.16332
"Reverse Romp","Romp Roof > Outback Bouldering > *Joshua Tree Bouldering* > Joshua Tree National Park > California",https://www.mountainproject.com/route/112458665/reverse-romp,3.0,-1,Boulder,V4+,1,20,34.02174,-116.16332
"How's Your Mama?","Family Boulder > Outback Bouldering > *Joshua Tree Bouldering* > Joshua Tree National Park > California",https://www.mountainproject.com/route/105910582/hows-your-mama,3.0,-1,Boulder,V4,1,10,34.02065,-116.16221
"Pitch Two","Dino's Egg > Outback Bouldering > *Joshua Tree Bouldering* > Joshua Tree National Park > California",https://www.mountainproject.com/route/108567221/pitch-two,3.5,-1,Boulder,V4,1,,34.02051,-116.16504
"False Hueco Traverse","False Hueco Boulder > Outback Bouldering > *Joshua Tree Bouldering* > Joshua Tree National Park > California",https://www.mountainproject.com/route/106048290/false-hueco-traverse,3.0,-1,Boulder,V2,1,15,34.01912,-116.16529
"Falser Hueco Traverse","False Hueco Boulder > Outback Bouldering > *Joshua Tree Bouldering* > Joshua Tree National Park > California",https://www.mountainproject.com/route/112443810/falser-hueco-traverse,3.2,-1,Boulder,V2,1,,34.01912,-116.16529
"Yabba Dabba Don't","Yabba Dabba Don't Boulder > Outback Bouldering > *Joshua Tree Bouldering* > Joshua Tree National Park > California",https://www.mountainproject.com/route/106066269/yabba-dabba-dont,2.9,-1,Boulder,V3,1,15,34.01968,-116.16583
"Hobbit Hole Offwidth","Hobbit Hole Boulder > Outback Bouldering > *Joshua Tree Bouldering* > Joshua Tree National Park > California",https://www.mountainproject.com/route/106072721/hobbit-hole-offwidth,3.1,-1,Boulder,V0,1,12,34.0229,-116.16414
"Scorpion Traverse","Scorpion Roof > Outback Bouldering > *Joshua Tree Bouldering* > Joshua Tree National Park > California",https://www.mountainproject.com/route/106111471/scorpion-traverse,3.1,-1,Boulder,"V4 R",1,20,34.1,-116.6
"Scorpion Roof Direct","Scorpion Roof > Outback Bouldering > *Joshua Tree Bouldering* > Joshua Tree National Park > California",https://www.mountainproject.com/route/106111480/scorpion-roof-direct,3.0,-1,Boulder,"V5 R",1,20,34.1,-116.6
"Tilt-o-Meter Traverse","Tilt-o-Meter Boulder > Outback Bouldering > *Joshua Tree Bouldering* > Joshua Tree National Park > California",https://www.mountainproject.com/route/118115630/tilt-o-meter-traverse,3.0,-1,Boulder,V1,1,20,34.02044,-116.16555
"Gripped and Grunged","Dike Boulder > Outback Bouldering > *Joshua Tree Bouldering* > Joshua Tree National Park > California",https://www.mountainproject.com/route/112453936/gripped-and-grunged,3.0,-1,Boulder,V4,1,15,34.01917,-116.16588
Animal,"Animal Boulder > Outback Bouldering > *Joshua Tree Bouldering* > Joshua Tree National Park > California",https://www.mountainproject.com/route/112454282/animal,3.0,-1,Boulder,V6,1,,34.02287,-116.16408
"Chili Sauce (aka Moffat Problem)","Moffat Boulder > Ryan Campground Bouldering > *Joshua Tree Bouldering* > Joshua Tree National Park > California",https://www.mountainproject.com/route/105722893/chili-sauce-aka-moffat-problem,3.4,-1,Boulder,V7,1,20,33.98393,-116.15202
"Corner Arete","Facet Boulder > Ryan Campground Bouldering > *Joshua Tree Bouldering* > Joshua Tree National Park > California",https://www.mountainproject.com/route/118142101/corner-arete,3.0,-1,Boulder,V1,1,18,33.98414,-116.1525
"Facet Arete","Facet Boulder > Ryan Campground Bouldering > *Joshua Tree Bouldering* > Joshua Tree National Park > California",https://www.mountainproject.com/route/118186236/facet-arete,3.0,-1,Boulder,V6,1,20,33.98414,-116.1525
"Dreaming of the Master","Master Boulder > Ryan Campground Bouldering > *Joshua Tree Bouldering* > Joshua Tree National Park > California",https://www.mountainproject.com/route/106157186/dreaming-of-the-master,3.4,-1,Boulder,V8,1,20,33.983,-116.15545
"Swinging Richard","Chocolate Boulder 1 > Chocolate Boulders > Quail Springs Bouldering > *Joshua Tree Bouldering* > Joshua Tree National Park > California",https://www.mountainproject.com/route/105789389/swinging-richard,3.1,-1,Boulder,V4,1,20,34.06259,-116.22631
Miledi,"Miledi Boulder > Miledi Boulders > Quail Springs Bouldering > *Joshua Tree Bouldering* > Joshua Tree National Park > California",https://www.mountainproject.com/route/105790036/miledi,3.7,-1,Boulder,"V3 R",1,25,34.07547,-116.24202
"K.D. Supreme","Miledi Boulder > Miledi Boulders > Quail Springs Bouldering > *Joshua Tree Bouldering* > Joshua Tree National Park > California",https://www.mountainproject.com/route/105790043/kd-supreme,3.3,-1,Boulder,V4,1,18,34.07547,-116.24202
"Miledi (yabo)","Miledi Boulder > Miledi Boulders > Quail Springs Bouldering > *Joshua Tree Bouldering* > Joshua Tree National Park > California",https://www.mountainproject.com/route/109677074/miledi-yabo,3.0,-1,Boulder,"V5 PG13",1,18,34.07547,-116.24202
"K.D. Supreme (yabo)","Miledi Boulder > Miledi Boulders > Quail Springs Bouldering > *Joshua Tree Bouldering* > Joshua Tree National Park > California",https://www.mountainproject.com/route/109677097/kd-supreme-yabo,4.0,-1,Boulder,"V6 PG13",1,15,34.07547,-116.24202
"The Embryo","Embryo Boulder > Embryo Area > Quail Springs Bouldering > *Joshua Tree Bouldering* > Joshua Tree National Park > California",https://www.mountainproject.com/route/106069375/the-embryo,2.8,-1,Boulder,V4,1,12,34.08076,-116.246
"Block Problem","Forgotten Boulders > Trashcan Rock Area > Quail Springs Bouldering > *Joshua Tree Bouldering* > Joshua Tree National Park > California",https://www.mountainproject.com/route/107432627/block-problem,2.8,-1,Boulder,V0,1,16,34.04068,-116.19807
"Locker's Face","Forgotten Boulders > Trashcan Rock Area > Quail Springs Bouldering > *Joshua Tree Bouldering* > Joshua Tree National Park > California",https://www.mountainproject.com/route/113923195/lockers-face,3.0,-1,Boulder,V1,1,22,34.04068,-116.19807
"Mr. Freeze","Trashcan Boulders > Trashcan Rock Area > Quail Springs Bouldering > *Joshua Tree Bouldering* > Joshua Tree National Park > California",https://www.mountainproject.com/route/108495541/mr-freeze,3.0,-1,Boulder,V5,1,40,34.04026,-116.19707
"Leather and Lace","The Phantom Cart > The Outer Rim > Quail Springs Bouldering > *Joshua Tree Bouldering* > Joshua Tree National Park > California",https://www.mountainproject.com/route/110049097/leather-and-lace,3.0,-1,Boulder,V5,1,25,34.08392,-116.23255
"Dream Sequence","Dream Sequence Boulder > Lonely Stones 1 > Quail Springs Bouldering > *Joshua Tree Bouldering* > Joshua Tree National Park > California",https://www.mountainproject.com/route/112449555/dream-sequence,3.1,-1,Boulder,V6,1,13,34.08958,-116.25335
Slashface,"Slash Boulder > Western Belt > Geology Tour Road Bouldering > *Joshua Tree Bouldering* > Joshua Tree National Park > California",https://www.mountainproject.com/route/105722755/slashface,3.9,-1,Boulder,"V3 R",1,25,33.95344,-116.08706
"Tips Be Gone Traverse","Tips Be Gone Wall > Western Belt > Geology Tour Road Bouldering > *Joshua Tree Bouldering* > Joshua Tree National Park > California",https://www.mountainproject.com/route/106708018/tips-be-gone-traverse,3.0,-1,Boulder,V7,1,20,33.959,-116.0825
"Pinched Loaf","Pinched Loaf Boulder > Western Belt > Geology Tour Road Bouldering > *Joshua Tree Bouldering* > Joshua Tree National Park > California",https://www.mountainproject.com/route/108005790/pinched-loaf,3.4,-1,Boulder,V6,1,15,33.95612,-116.0857
"3-Star Lieback","Star Boulder > Western Belt > Geology Tour Road Bouldering > *Joshua Tree Bouldering* > Joshua Tree National Park > California",https://www.mountainproject.com/route/114338783/3-star-lieback,3.2,-1,Boulder,"5.9 V0-",1,25,33.95522,-116.09084
"4-Star Dyno","Star Boulder > Western Belt > Geology Tour Road Bouldering > *Joshua Tree Bouldering* > Joshua Tree National Park > California",https://www.mountainproject.com/route/116751504/4-star-dyno,4.0,-1,Boulder,V6,1,17,33.95522,-116.09084
"The Peanut","The Peanut boulder > Volcano Boulder Area > The Volcano Area > Virgin Islands Area > Geology Tour Road Bouldering > *Joshua Tree Bouldering* > Joshua Tree National Park > California",https://www.mountainproject.com/route/117537429/the-peanut,4.0,-1,Boulder,"V7 R",1,,33.94799,-116.07516
"Dripper Left","Dripper Boulder > Human Sacrifice Cove > The Volcano Area > Virgin Islands Area > Geology Tour Road Bouldering > *Joshua Tree Bouldering* > Joshua Tree National Park > California",https://www.mountainproject.com/route/106359702/dripper-left,3.0,-1,Boulder,V2,1,16,33.9454,-116.077
"Dike Face","Dike Boulder > Lechlinksi Cracks Area > Virgin Islands Area > Geology Tour Road Bouldering > *Joshua Tree Bouldering* > Joshua Tree National Park > California",https://www.mountainproject.com/route/105908431/dike-face,3.3,-1,Boulder,V5-,1,25,33.94256,-116.07694
"Cave Rock Problem","Towers of Uncertainty > Geology Tour Road Bouldering > *Joshua Tree Bouldering* > Joshua Tree National Park > California",https://www.mountainproject.com/route/107087639/cave-rock-problem,3.0,-1,Boulder,V4,1,15,33.9664,-116.0872
"Scum Bag","Towers of Uncertainty > Geology Tour Road Bouldering > *Joshua Tree Bouldering* > Joshua Tree National Park > California",https://www.mountainproject.com/route/107087556/scum-bag,4.0,-1,Boulder,V8-9,1,15,33.9664,-116.0872
Palm-o-Granite,"Black Lichen Boulder > Stonehenge Boulders > Stonehenge and Fry Boulders > *Joshua Tree Bouldering* > Joshua Tree National Park > California",https://www.mountainproject.com/route/106329639/palm-o-granite,3.0,-1,Boulder,V6,1,15,33.98603,-116.15961
"Picture Perfect (sit)","Picture Perfect Boulder > Stonehenge Boulders > Stonehenge and Fry Boulders > *Joshua Tree Bouldering* > Joshua Tree National Park > California",https://www.mountainproject.com/route/106090961/picture-perfect-sit,3.0,-1,Boulder,V5,1,15,33.9861,-116.15981
"Finger Fetish","Hoi Polloi Boulder > Stonehenge Boulders > Stonehenge and Fry Boulders > *Joshua Tree Bouldering* > Joshua Tree National Park > California",https://www.mountainproject.com/route/109866498/finger-fetish,2.9,-1,Boulder,V8,1,20,33.98601,-116.15936
"Fry Problem","Fry Boulder > Fry Boulders > Stonehenge and Fry Boulders > *Joshua Tree Bouldering* > Joshua Tree National Park > California",https://www.mountainproject.com/route/106039374/fry-problem,3.7,-1,Boulder,V2,1,15,33.98831,-116.15795
"Spud Fry","Fry Boulder > Fry Boulders > Stonehenge and Fry Boulders > *Joshua Tree Bouldering* > Joshua Tree National Park > California",https://www.mountainproject.com/route/119127772/spud-fry,3.0,-1,Boulder,V3,1,15,33.98831,-116.15795
Alexandria,"The Rosetta Stone > Loveland Bouldering > *Joshua Tree Bouldering* > Joshua Tree National Park > California",https://www.mountainproject.com/route/105722161/alexandria,3.9,-1,Boulder,V6,1,20,34.02582,-116.04886
Psyche,"Xenolithic Boulder > Loveland Bouldering > *Joshua Tree Bouldering* > Joshua Tree National Park > California",https://www.mountainproject.com/route/105722866/psyche,4.0,-1,Boulder,V4,1,20,34.01707,-116.04227
"Streetcar Named Desire","Streetcar Boulder > Gunsmoke Area > Barker Dam Bouldering > *Joshua Tree Bouldering* > Joshua Tree National Park > California",https://www.mountainproject.com/route/105722911/streetcar-named-desire,3.7,-1,Boulder,V6-7,1,13,34.02758,-116.14483
"The Chube","Chube Boulder > Gunsmoke Area > Barker Dam Bouldering > *Joshua Tree Bouldering* > Joshua Tree National Park > California",https://www.mountainproject.com/route/105724441/the-chube,3.4,-1,Boulder,V2,1,15,34.02838,-116.14524
"Iron Resolution","Iron Resolution Block > Gunsmoke Area > Barker Dam Bouldering > *Joshua Tree Bouldering* > Joshua Tree National Park > California",https://www.mountainproject.com/route/106104512/iron-resolution,3.5,-1,Boulder,V12+,1,25,34.02783,-116.14452
Gunsmoke,"Gunsmoke Wall > Gunsmoke Area > Barker Dam Bouldering > *Joshua Tree Bouldering* > Joshua Tree National Park > California",https://www.mountainproject.com/route/105722350/gunsmoke,3.7,-1,Boulder,V3,1,80,34.02858,-116.14508
"High Noon","Gunsmoke Wall > Gunsmoke Area > Barker Dam Bouldering > *Joshua Tree Bouldering* > Joshua Tree National Park > California",https://www.mountainproject.com/route/105722908/high-noon,3.4,-1,Boulder,V5,1,16,34.02858,-116.14508
"Shanghai Noon","Gunsmoke Wall > Gunsmoke Area > Barker Dam Bouldering > *Joshua Tree Bouldering* > Joshua Tree National Park > California",https://www.mountainproject.com/route/106104520/shanghai-noon,2.9,-1,Boulder,V6,1,15,34.02858,-116.14508
"Sex Magician","Alisters Cave > Barker Dam Bouldering > *Joshua Tree Bouldering* > Joshua Tree National Park > California",https://www.mountainproject.com/route/106149980/sex-magician,3.7,-1,Boulder,V7,1,,34.0317,-116.1499
"Diary of a Dope Fiend","Alisters Cave > Barker Dam Bouldering > *Joshua Tree Bouldering* > Joshua Tree National Park > California",https://www.mountainproject.com/route/107455255/diary-of-a-dope-fiend,3.8,-1,Boulder,V8,1,25,34.0317,-116.1499
"New Wave","Indian Wave Boulder > Indian Wave Boulders > Barker Dam Bouldering > *Joshua Tree Bouldering* > Joshua Tree National Park > California",https://www.mountainproject.com/route/106345773/new-wave,3.0,-1,Boulder,V5,1,20,34.02608,-116.14135
"Native Arete","Native Arete Boulder > Indian Wave Boulders > Barker Dam Bouldering > *Joshua Tree Bouldering* > Joshua Tree National Park > California",https://www.mountainproject.com/route/106345888/native-arete,3.0,-1,Boulder,V0,1,12,34.02648,-116.14181
"Native Arete SDS","Native Arete Boulder > Indian Wave Boulders > Barker Dam Bouldering > *Joshua Tree Bouldering* > Joshua Tree National Park > California",https://www.mountainproject.com/route/106345895/native-arete-sds,3.0,-1,Boulder,V1,1,12,34.02648,-116.14181
"Lost and Found","Lost and Found Corridor > Barker Dam Bouldering > *Joshua Tree Bouldering* > Joshua Tree National Park > California",https://www.mountainproject.com/route/109925904/lost-and-found,3.0,-1,Boulder,"V8 PG13",1,18,34.02611,-116.14462
JBMFP,"JBMF Boulder > JBMF Boulders > Roadside Rocks Bouldering > *Joshua Tree Bouldering* > Joshua Tree National Park > California",https://www.mountainproject.com/route/105725464/jbmfp,3.9,-1,Boulder,V5,1,16,34.0152,-116.16631
"Yabo Roof","Yabo Roof Area > JBMF Boulders > Roadside Rocks Bouldering > *Joshua Tree Bouldering* > Joshua Tree National Park > California",https://www.mountainproject.com/route/106039628/yabo-roof,2.9,-1,Boulder,V3,1,6,34.01468,-116.1658
"Yabo Roof Traverse","Yabo Roof Area > JBMF Boulders > Roadside Rocks Bouldering > *Joshua Tree Bouldering* > Joshua Tree National Park > California",https://www.mountainproject.com/route/106662633/yabo-roof-traverse,2.9,-1,Boulder,V6,1,,34.01468,-116.1658
"False Up 20","False Up 20 Boulder > JBMF Boulders > Roadside Rocks Bouldering > *Joshua Tree Bouldering* > Joshua Tree National Park > California",https://www.mountainproject.com/route/105725461/false-up-20,3.6,-1,Boulder,V0-,1,20,34.01513,-116.16605
"Western Roll (sit)","Texas Boulder > Roadside Rocks Bouldering > *Joshua Tree Bouldering* > Joshua Tree National Park > California",https://www.mountainproject.com/route/106073439/western-roll-sit,2.9,-1,Boulder,V5,1,12,34.0181,-116.1698
"Penguins in Bondage","Penguins Boulder > Jimmy Cliff Area > Lost Horse Bouldering > *Joshua Tree Bouldering* > Joshua Tree National Park > California",https://www.mountainproject.com/route/106669160/penguins-in-bondage,3.0,-1,Boulder,V4,1,20,34.01229,-116.17935
"Sloper Safari","Meadows Boulder > Hall of Horrors Bouldering > *Joshua Tree Bouldering* > Joshua Tree National Park > California",https://www.mountainproject.com/route/106329025/sloper-safari,3.2,-1,Boulder,V4,1,10,33.99418,-116.14301
"Meadows Direct","Meadows Boulder > Hall of Horrors Bouldering > *Joshua Tree Bouldering* > Joshua Tree National Park > California",https://www.mountainproject.com/route/106708072/meadows-direct,3.2,-1,Boulder,V6,1,15,33.99418,-116.14301
"Alien Arete","Alien Arete Boulder > Hall of Horrors Area > Hall of Horrors Bouldering > *Joshua Tree Bouldering* > Joshua Tree National Park > California",https://www.mountainproject.com/route/108539246/alien-arete,4.0,-1,Boulder,"V5 R",1,22,34.00036,-116.1457
"Lynn Hill Memorial Face Problem","Lynn Hill Memorial Boulder > King Dome Area > Hall of Horrors Bouldering > *Joshua Tree Bouldering* > Joshua Tree National Park > California",https://www.mountainproject.com/route/106118096/lynn-hill-memorial-face-problem,3.6,-1,Boulder,V4,1,20,34.00377,-116.14932
"Iron Meteorite (aka Kingpin)","The Iron Meteorite (aka Kingpin Boulder) > King Dome Area > Hall of Horrors Bouldering > *Joshua Tree Bouldering* > Joshua Tree National Park > California",https://www.mountainproject.com/route/108085516/iron-meteorite-aka-kingpin,3.9,-1,Boulder,"V5 PG13",1,22,34.00242,-116.14971
"Igneous Ambiance","Igneous Boulder > Echo Cove Bouldering > Echo Rock Bouldering > *Joshua Tree Bouldering* > Joshua Tree National Park > California",https://www.mountainproject.com/route/108854273/igneous-ambiance,3.1,-1,Boulder,V7,1,8,34.02588,-116.1595
"Mulligan Variation","Igneous Boulder > Echo Cove Bouldering > Echo Rock Bouldering > *Joshua Tree Bouldering* > Joshua Tree National Park > California",https://www.mountainproject.com/route/106662629/mulligan-variation,3.0,-1,Boulder,V8-,1,12,34.02588,-116.1595
"Classic Thin Crack","Classic Thin Crack Boulder > Echo Cove Bouldering > Echo Rock Bouldering > *Joshua Tree Bouldering* > Joshua Tree National Park > California",https://www.mountainproject.com/route/106069406/classic-thin-crack,3.1,-1,Boulder,V2,1,15,34.02534,-116.15881
"Coyote Corner","Coyote Corner > Echo Cove Bouldering > Echo Rock Bouldering > *Joshua Tree Bouldering* > Joshua Tree National Park > California",https://www.mountainproject.com/route/106693819/coyote-corner,3.3,-1,Boulder,"V1 R",1,33,34.02521,-116.16083
Monkeyflower,"Land of the Lost Boulder > Echo Cove Bouldering > Echo Rock Bouldering > *Joshua Tree Bouldering* > Joshua Tree National Park > California",https://www.mountainproject.com/route/108716729/monkeyflower,2.8,-1,Boulder,V3,1,12,34.0261,-116.15844
"Chorizo Tacos","Land of the Lost Boulder > Echo Cove Bouldering > Echo Rock Bouldering > *Joshua Tree Bouldering* > Joshua Tree National Park > California",https://www.mountainproject.com/route/108017981/chorizo-tacos,2.9,-1,Boulder,V4,1,12,34.0261,-116.15844
"Master Cylinder","Master Cylinder > Echo Rock Boulders > Echo Rock Bouldering > *Joshua Tree Bouldering* > Joshua Tree National Park > California",https://www.mountainproject.com/route/111808964/master-cylinder,3.9,-1,Boulder,V5,1,18,34.02594,-116.15522
"Spicy T","Spicy T Boulder > Western Wilderness Boulders > Indian Cove CG > Indian Cove Bouldering > *Joshua Tree Bouldering* > Joshua Tree National Park > California",https://www.mountainproject.com/route/118251810/spicy-t,3.0,-1,Boulder,"V0 PG13",1,15,34.09261,-116.17444
Bodyglove,"Porcelain Wall > Inner Circle > The Underground > Queen Mountain Bouldering > *Joshua Tree Bouldering* > Joshua Tree National Park > California",https://www.mountainproject.com/route/106151249/bodyglove,3.6,-1,Boulder,V4,1,15,34.06942,-116.09196
"Body and Soul","Porcelain Wall > Inner Circle > The Underground > Queen Mountain Bouldering > *Joshua Tree Bouldering* > Joshua Tree National Park > California",https://www.mountainproject.com/route/106152051/body-and-soul,3.6,-1,Boulder,V5,1,15,34.06942,-116.09196
"Nicole Face","Feature Boulder (aka Fred Nicole Boulder) > Inner Circle > The Underground > Queen Mountain Bouldering > *Joshua Tree Bouldering* > Joshua Tree National Park > California",https://www.mountainproject.com/route/106151277/nicole-face,3.7,-1,Boulder,V3-4,1,18,34.06942,-116.09196
"Dark Matter","Eclipse Boulder > Inner Circle > The Underground > Queen Mountain Bouldering > *Joshua Tree Bouldering* > Joshua Tree National Park > California",https://www.mountainproject.com/route/106152798/dark-matter,3.5,-1,Boulder,V10,1,15,34.06942,-116.09196
"Roasted and Raw","Moonstone > Inner Circle > The Underground > Queen Mountain Bouldering > *Joshua Tree Bouldering* > Joshua Tree National Park > California",https://www.mountainproject.com/route/108056142/roasted-and-raw,4.0,-1,Boulder,V12,1,16,34.06942,-116.09196
"Tinkerbell's Anus","Mullet Bloc > The Separate Boulders > The Wastelands > Queen Mountain Base > Queen Mountain Bouldering > *Joshua Tree Bouldering* > Joshua Tree National Park > California",https://www.mountainproject.com/route/106643980/tinkerbells-anus,3.0,-1,Boulder,V2,1,12,34.0441,-116.1061
"Lox O' Kourndoggs","Lox Boulder > The Separate Boulders > The Wastelands > Queen Mountain Base > Queen Mountain Bouldering > *Joshua Tree Bouldering* > Joshua Tree National Park > California",https://www.mountainproject.com/route/116483086/lox-o-kourndoggs,3.0,-1,Boulder,V3,1,,34.0441,-116.1061
Habanero,"The Habanero > The Separate Boulders > The Wastelands > Queen Mountain Base > Queen Mountain Bouldering > *Joshua Tree Bouldering* > Joshua Tree National Park > California",https://www.mountainproject.com/route/106686368/habanero,3.0,-1,Boulder,V4,1,14,34.04621,-116.10331
"Kentucky Fried Christ","The Watchtower > Queen Mountain Bouldering > *Joshua Tree Bouldering* > Joshua Tree National Park > California",https://www.mountainproject.com/route/109964898/kentucky-fried-christ,3.5,-1,Boulder,V2,1,25,34.0538,-116.1042
"The Inquisition","Inquisition Bloc > Lonesome Crowded West > *Joshua Tree Bouldering* > Joshua Tree National Park > California",https://www.mountainproject.com/route/106801960/the-inquisition,3.9,-1,Boulder,V6,1,20,34.033,-116.1721
"EJ Deluxe Escape","E. J.  Deluxe Boulder > Lonesome Crowded West > *Joshua Tree Bouldering* > Joshua Tree National Park > California",https://www.mountainproject.com/route/108757305/ej-deluxe-escape,3.0,-1,Boulder,V3,1,14,34.033,-116.1721
"EJ Deluxe","E. J.  Deluxe Boulder > Lonesome Crowded West > *Joshua Tree Bouldering* > Joshua Tree National Park > California",https://www.mountainproject.com/route/106835225/ej-deluxe,3.5,-1,Boulder,V5,1,18,34.033,-116.1721
"Feeling Lucky","Lucky Boy Bouldering > *Joshua Tree Bouldering* > Joshua Tree National Park > California",https://www.mountainproject.com/route/114010940/feeling-lucky,3.0,-1,Boulder,V3,1,12,34.01823,-116.0737
"Mr Nice","Lucky Boy Bouldering > *Joshua Tree Bouldering* > Joshua Tree National Park > California",https://www.mountainproject.com/route/114117341/mr-nice,3.0,-1,Boulder,V4,1,10,34.01823,-116.0737
"Double Entendre","Lucky Boy Bouldering > *Joshua Tree Bouldering* > Joshua Tree National Park > California",https://www.mountainproject.com/route/114010825/double-entendre,3.0,-1,Boulder,V6,1,12,34.01823,-116.0737
"Animal Crackers","Boyscout Trailhead Bouldering > *Joshua Tree Bouldering* > Joshua Tree National Park > California",https://www.mountainproject.com/route/118896689/animal-crackers,3.0,-1,Boulder,V5-6,1,10,34.0403,-116.18632
